[
	{
		"stateProv": "Alberta",
		"region": "Central Alberta",
		"city": "Edmonton",
		"name": "Coffee Bureau",
		"address": "10505 Jasper Avenue",
		"coffeeServed": "",
		"website": "",
		"latitude": 53.540684,
		"longitude": -113.501418
	},
	{
		"stateProv": "Alberta",
		"region": "Central Alberta",
		"city": "Edmonton",
		"name": "Transcend Ritchie",
		"address": "9570 76 Avenue NW",
		"coffeeServed": "Transcend",
		"website": "https://www.transcendcoffee.ca/",
		"latitude": 53.512555,
		"longitude": -113.476287
	},
	{
		"stateProv": "Alberta",
		"region": "Central Alberta",
		"city": "Edmonton",
		"name": "Transcend Garneau",
		"address": "8708-109 Street",
		"coffeeServed": "Transcend",
		"website": "https://www.transcendcoffee.ca/",
		"latitude": 53.513226,
		"longitude": -113.623864
	},
	{
		"stateProv": "Alberta",
		"region": "Central Alberta",
		"city": "Edmonton",
		"name": "Credo",
		"address": "10134 104 Street",
		"coffeeServed": "Detour",
		"website": "http://www.credocoffee.ca/index.html",
		"latitude": 53.541781,
		"longitude": -113.499464
	},
	{
		"stateProv": "Alberta",
		"region": "Central Alberta",
		"city": "Edmonton",
		"name": "Credo",
		"address": "10350 - 124 Street",
		"coffeeServed": "Detour",
		"website": "http://www.credocoffee.ca/index.html",
		"latitude": 53.513226,
		"longitude": -113.623864
	},
	{
		"stateProv": "Alberta",
		"region": "Central Alberta",
		"city": "Edmonton",
		"name": "Barking Buffalo",
		"address": "10842 124th Street NW",
		"coffeeServed": "Pilot",
		"website": "http://barkingbuffalocafe.com/",
		"latitude": 53.553746,
		"longitude": -113.536102
	},
	{
		"stateProv": "Alberta",
		"region": "Central Alberta",
		"city": "Edmonton",
		"name": "The Woodrack",
		"address": "7603 - 109th Street",
		"coffeeServed": "Chronicle & Oso Negro",
		"website": "https://www.thewoodrackcafe.com/",
		"latitude": 53.512426,
		"longitude": -113.511727
	},
	{
		"stateProv": "Alberta",
		"region": "Central Alberta",
		"city": "Edmonton",
		"name": "Lock Stock Coffee",
		"address": "10534 Jasper Avenue",
		"coffeeServed": "",
		"website": "http://www.lockstockcoffee.com/",
		"latitude": 53.541274,
		"longitude": -113.50212
	},
	{
		"stateProv": "Alberta",
		"region": "Central Alberta",
		"city": "Edmonton",
		"name": "District Cafe",
		"address": "10011 - 109 Street",
		"coffeeServed": "Ace",
		"website": "http://districtcafe.ca/",
		"latitude": 53.513226,
		"longitude": -113.623864
	},
	{
		"stateProv": "Alberta",
		"region": "Central Alberta",
		"city": "Edmonton",
		"name": "Square 1",
		"address": "15 Fairway Drive NW",
		"coffeeServed": "",
		"website": "http://square1coffee.ca/",
		"latitude": 53.472414,
		"longitude": -113.540008
	},
	{
		"stateProv": "Alberta",
		"region": "Central Alberta",
		"city": "Edmonton",
		"name": "Rouge Wave",
		"address": "11322 119 Street NW",
		"coffeeServed": "Rouge Wave",
		"website": "https://www.roguewavecoffee.ca/",
		"latitude": 53.563206,
		"longitude": -113.527411
	},
	{
		"stateProv": "Alberta",
		"region": "Central Alberta",
		"city": "Edmonton",
		"name": "The Columbian",
		"address": "10340 134 Street NW",
		"coffeeServed": "Columbian",
		"website": "https://www.thecolombian.ca/",
		"latitude": 53.545875,
		"longitude": -113.55343
	},
	{
		"stateProv": "Alberta",
		"region": "Central Alberta",
		"city": "Edmonton",
		"name": "The Nook",
		"address": "10153 97 Street NW",
		"coffeeServed": "Roasti",
		"website": "",
		"latitude": 53.543661,
		"longitude": -113.485578
	},
	{
		"stateProv": "Alberta",
		"region": "Central Alberta",
		"city": "Edmonton",
		"name": "The Grizzlar",
		"address": "10557 109 Street",
		"coffeeServed": "Grizzlar",
		"website": "",
		"latitude": 53.549062,
		"longitude": -113.507881
	},
	{
		"stateProv": "Alberta",
		"region": "Central Alberta",
		"city": "Edmonton",
		"name": "Ace Coffee Roasters",
		"address": "10055 80th Avenue",
		"coffeeServed": "Ace",
		"website": "",
		"latitude": 53.515847,
		"longitude": -113.490698
	},
	{
		"stateProv": "Alberta",
		"region": "Central Alberta",
		"city": "Edmonton",
		"name": "Cafe Blackbird",
		"address": "9640 142 Street NW",
		"coffeeServed": "Ace",
		"website": "",
		"latitude": 53.533791,
		"longitude": -113.566908
	},
	{
		"stateProv": "Alberta",
		"region": "Central Alberta",
		"city": "Edmonton",
		"name": "Cafe Leva",
		"address": "11053 86 Avenue",
		"coffeeServed": "",
		"website": "",
		"latitude": 53.521677,
		"longitude": -113.517582
	},
	{
		"stateProv": "Alberta",
		"region": "Central Alberta",
		"city": "Edmonton",
		"name": "Iconoclast",
		"address": "12021 102 Avenue",
		"coffeeServed": "",
		"website": "",
		"latitude": 53.542737,
		"longitude": -113.530371
	},
	{
		"stateProv": "Alberta",
		"region": "Central Alberta",
		"city": "Edmonton",
		"name": "Iconoclast",
		"address": "11523 100 Avenue",
		"coffeeServed": "",
		"website": "",
		"latitude": 53.538261,
		"longitude": -113.520776
	},
	{
		"stateProv": "Alberta",
		"region": "Central Alberta",
		"city": "Edmonton",
		"name": "Block 1912",
		"address": "10361 Whyte Avenue NW",
		"coffeeServed": "",
		"website": "",
		"latitude": 53.252836,
		"longitude": -113.576639
	},
	{
		"stateProv": "Alberta",
		"region": "Central Alberta",
		"city": "Edmonton",
		"name": "Anvil",
		"address": "",
		"coffeeServed": "",
		"website": "",
		"latitude": 53.513226,
		"longitude": -113.623864
	},
	{
		"stateProv": "Alberta",
		"region": "Central Alberta",
		"city": "Edmonton",
		"name": "Little Brick",
		"address": "10004 90 Street NW",
		"coffeeServed": "Ace",
		"website": "",
		"latitude": 53.542103,
		"longitude": -113.469561
	},
	{
		"stateProv": "Alberta",
		"region": "Central Alberta",
		"city": "Sherwood Park",
		"name": "Roasti",
		"address": "52 Bretwood Blvd",
		"coffeeServed": "Roasti",
		"website": "",
		"latitude": 0,
		"longitude": 0
	},
	{
		"stateProv": "Alberta",
		"region": "Southern Alberta",
		"city": "Calgary",
		"name": "Analog",
		"address": "#205 5 avenue SW",
		"coffeeServed": "Analog",
		"website": "",
		"latitude": 51.048341,
		"longitude": -114.065928
	},
	{
		"stateProv": "Alberta",
		"region": "Southern Alberta",
		"city": "Calgary",
		"name": "Monogram",
		"address": "420 - 2nd Street SW",
		"coffeeServed": "",
		"website": "",
		"latitude": 50.400213,
		"longitude": -113.264424
	},
	{
		"stateProv": "Alberta",
		"region": "Southern Alberta",
		"city": "Calgary",
		"name": "Monogram",
		"address": "4814 16th Street SW",
		"coffeeServed": "",
		"website": "",
		"latitude": 51.011077,
		"longitude": -114.100035
	},
	{
		"stateProv": "Alberta",
		"region": "Southern Alberta",
		"city": "Calgary",
		"name": "Phil & Sebastian",
		"address": "102 8 Avenue SW",
		"coffeeServed": "Phil & Sebastian",
		"website": "",
		"latitude": 51.045671,
		"longitude": -114.063384
	},
	{
		"stateProv": "Alberta",
		"region": "Southern Alberta",
		"city": "Calgary",
		"name": "Phil & Sebastian",
		"address": "618 Confluence Way SE",
		"coffeeServed": "Phil & Sebastian",
		"website": "",
		"latitude": 51.047792,
		"longitude": -114.049793
	},
	{
		"stateProv": "Alberta",
		"region": "Southern Alberta",
		"city": "Calgary",
		"name": "Phil & Sebastian",
		"address": "2043 33rd Avenue SW",
		"coffeeServed": "Phil & Sebastian",
		"website": "",
		"latitude": 51.023855,
		"longitude": -114.110252
	},
	{
		"stateProv": "Alberta",
		"region": "Southern Alberta",
		"city": "Calgary",
		"name": "Phil & Sebastian",
		"address": "6455 MacLeod Trail SW",
		"coffeeServed": "Phil & Sebastian",
		"website": "",
		"latitude": 50.997667,
		"longitude": -114.072006
	},
	{
		"stateProv": "Alberta",
		"region": "Southern Alberta",
		"city": "Calgary",
		"name": "Phil & Sebastian",
		"address": "2207 4th Street SW",
		"coffeeServed": "Phil & Sebastian",
		"website": "",
		"latitude": 51.033065,
		"longitude": -114.071702
	},
	{
		"stateProv": "Alberta",
		"region": "Southern Alberta",
		"city": "Calgary",
		"name": "Phil & Sebastian",
		"address": "#248 414 3rd Street SW",
		"coffeeServed": "Phil & Sebastian",
		"website": "",
		"latitude": 51.049086,
		"longitude": -114.069965
	},
	{
		"stateProv": "Alberta",
		"region": "Central Alberta",
		"city": "Hinton",
		"name": "The Old Grind",
		"address": "175 Pembina Avenue",
		"coffeeServed": "locally roasted",
		"website": "",
		"latitude": 53.398791,
		"longitude": -117.588702
	},
	{
		"stateProv": "Alberta",
		"region": "Rocky Mountains",
		"city": "Edson",
		"name": "Sacred Groundz Inc",
		"address": "221 50 Street",
		"coffeeServed": "Starbucks",
		"website": "",
		"latitude": 53.582438,
		"longitude": -116.430932
	},
	{
		"stateProv": "British Columbia",
		"region": "Southern Interior",
		"city": "Kelowna",
		"name": "Third Space",
		"address": "1708 Dolphin Avenue",
		"coffeeServed": "Phil & Sebastian",
		"website": "",
		"latitude": 49.879654,
		"longitude": -119.459636
	},
	{
		"stateProv": "British Columbia",
		"region": "Southern Interior",
		"city": "Kelowna",
		"name": "Canoe Coffee Roasters",
		"address": "984 Laurel Avenue",
		"coffeeServed": "Canoe",
		"website": "",
		"latitude": 49.895976,
		"longitude": -119.477683
	},
	{
		"stateProv": "British Columbia",
		"region": "Southern Interior",
		"city": "Kelowna",
		"name": "Bean Scene",
		"address": "#100 - 1615 Dickson Avenue",
		"coffeeServed": "",
		"website": "",
		"latitude": 49.880312,
		"longitude": -119.462222
	},
	{
		"stateProv": "British Columbia",
		"region": "Southern Interior",
		"city": "Kelowna",
		"name": "Bean Scene",
		"address": "371 Bernard Avenue",
		"coffeeServed": "",
		"website": "",
		"latitude": 49.886035,
		"longitude": -119.495479
	},
	{
		"stateProv": "British Columbia",
		"region": "Southern Interior",
		"city": "Kelowna",
		"name": "Bean Scene",
		"address": "1835 Gordon Drive",
		"coffeeServed": "",
		"website": "",
		"latitude": 49.881634,
		"longitude": -119.475767
	},
	{
		"stateProv": "British Columbia",
		"region": "Southern Interior",
		"city": "Kelowna",
		"name": "Bean Scene",
		"address": "5375 Big White Road",
		"coffeeServed": "",
		"website": "",
		"latitude": 49.722166,
		"longitude": -118.928695
	},
	{
		"stateProv": "British Columbia",
		"region": "Southern Interior",
		"city": "Kelowna",
		"name": "Bean Scene",
		"address": "2942 Pandosy Street",
		"coffeeServed": "",
		"website": "",
		"latitude": 49.863944,
		"longitude": -119.491592
	},
	{
		"stateProv": "British Columbia",
		"region": "Southern Interior",
		"city": "Kelowna",
		"name": "Bean Scene",
		"address": "1399 Ellis Street",
		"coffeeServed": "",
		"website": "",
		"latitude": 49.889316,
		"longitude": -119.49307
	},
	{
		"stateProv": "British Columbia",
		"region": "Vancouver Island",
		"city": "Victoria",
		"name": "Bows & Arrows",
		"address": "483 Garbally Road",
		"coffeeServed": "Bows & Arrows",
		"website": "",
		"latitude": 48.440107,
		"longitude": -123.373754
	},
	{
		"stateProv": "British Columbia",
		"region": "Lower Mainland",
		"city": "Vancouver",
		"name": "Timbertrain",
		"address": "311 W Cordova Street",
		"coffeeServed": "Timbertrain",
		"website": "",
		"latitude": 49.283793,
		"longitude": -123.109228
	},
	{
		"stateProv": "British Columbia",
		"region": "Lower Mainland",
		"city": "Vancouver",
		"name": "Timbertrain",
		"address": "551 McLean Drive",
		"coffeeServed": "Timbertrain",
		"website": "",
		"latitude": 49.279687,
		"longitude": -123.073924
	},
	{
		"stateProv": "British Columbia",
		"region": "Lower Mainland",
		"city": "Vancouver",
		"name": "49th Parallel",
		"address": "689 Thurlow Street",
		"coffeeServed": "49th Parallel",
		"website": "https://49thcoffee.com/",
		"latitude": 49.285393,
		"longitude": -123.124481
	},
	{
		"stateProv": "British Columbia",
		"region": "Lower Mainland",
		"city": "Vancouver",
		"name": "49th Parallel",
		"address": "2902 Main Street",
		"coffeeServed": "49th Parallel",
		"website": "https://49thcoffee.com/",
		"latitude": 49.259133,
		"longitude": -123.10079
	},
	{
		"stateProv": "British Columbia",
		"region": "Lower Mainland",
		"city": "Vancouver",
		"name": "49th Parallel",
		"address": "2198 West 4th Avenue",
		"coffeeServed": "49th Parallel",
		"website": "https://49thcoffee.com/",
		"latitude": 49.268432,
		"longitude": -123.154881
	},
	{
		"stateProv": "Ontario",
		"region": "GTA",
		"city": "Dundas",
		"name": "Detour Cafe",
		"address": "41 King Street W",
		"coffeeServed": "Detour",
		"website": "https://detourcoffee.com/",
		"latitude": 43.26651,
		"longitude": -79.955353
	},
	{
		"stateProv": "Ontario",
		"region": "GTA",
		"city": "Toronto",
		"name": "Pilot Coffee",
		"address": "50 WAGSTAFF Drive",
		"coffeeServed": "Pilot",
		"website": "",
		"latitude": 43.673889,
		"longitude": -79.330022
	},
	{
		"stateProv": "Ontario",
		"region": "GTA",
		"city": "Toronto",
		"name": "Balzacs",
		"address": "1 Trinity Street",
		"coffeeServed": "Balzacs",
		"website": "",
		"latitude": 43.649754,
		"longitude": -79.359134
	},
	{
		"stateProv": "Ontario",
		"region": "GTA",
		"city": "Toronto",
		"name": "Balzacs",
		"address": "43 Hanna Avenue",
		"coffeeServed": "Balzacs",
		"website": "",
		"latitude": 43.639154,
		"longitude": -79.419186
	},
	{
		"stateProv": "Ontario",
		"region": "GTA",
		"city": "Toronto",
		"name": "Balzacs",
		"address": "122 Bond Street",
		"coffeeServed": "Balzacs",
		"website": "",
		"latitude": 43.657378,
		"longitude": -79.379139
	},
	{
		"stateProv": "Ontario",
		"region": "GTA",
		"city": "Toronto",
		"name": "Balzacs",
		"address": "10 Market Street",
		"coffeeServed": "Balzacs",
		"website": "",
		"latitude": 43.64833,
		"longitude": -79.371995
	},
	{
		"stateProv": "Ontario",
		"region": "GTA",
		"city": "Toronto",
		"name": "Balzacs",
		"address": "29 Powerhouse Street",
		"coffeeServed": "Balzacs",
		"website": "",
		"latitude": 43.669617,
		"longitude": -79.448529
	},
	{
		"stateProv": "Ontario",
		"region": "GTA",
		"city": "Toronto",
		"name": "Balzacs",
		"address": "789 Younge Street",
		"coffeeServed": "Balzacs",
		"website": "",
		"latitude": 43.671879,
		"longitude": -79.38667
	},
	{
		"stateProv": "Ontario",
		"region": "GTA",
		"city": "Toronto",
		"name": "Balzacs",
		"address": "7 station Street",
		"coffeeServed": "Balzacs",
		"website": "",
		"latitude": 43.64427,
		"longitude": -79.384452
	},
	{
		"stateProv": "Ontario",
		"region": "Niagara",
		"city": "Niagara-on-the-lake",
		"name": "Balzacs",
		"address": "223 King Street",
		"coffeeServed": "Balzacs",
		"website": "",
		"latitude": 43.708089,
		"longitude": -79.505893
	},
	{
		"stateProv": "Ontario",
		"region": "Niagara",
		"city": "St Catherines",
		"name": "Balzacs",
		"address": "9 Lock Street",
		"coffeeServed": "Balzacs",
		"website": "",
		"latitude": 0,
		"longitude": 0
	},
	{
		"stateProv": "Ontario",
		"region": "Southwestern Ontario",
		"city": "Stratford",
		"name": "Balzacs",
		"address": "149 Ontario Street",
		"coffeeServed": "Balzacs",
		"website": "",
		"latitude": 43.371115,
		"longitude": -80.980166
	},
	{
		"stateProv": "Ontario",
		"region": "Southwestern Ontario",
		"city": "Kitchener",
		"name": "Balzacs",
		"address": "151 Charles Street West",
		"coffeeServed": "Balzacs",
		"website": "",
		"latitude": 43.451177,
		"longitude": -80.498266
	},
	{
		"stateProv": "Ontario",
		"region": "Southwestern Ontario",
		"city": "Guelph",
		"name": "Balzacs",
		"address": "5 Gordon Street",
		"coffeeServed": "Balzacs",
		"website": "",
		"latitude": 43.541707,
		"longitude": -80.248511
	},
	{
		"stateProv": "Ontario",
		"region": "Southwestern Ontario",
		"city": "Waterloo",
		"name": "Balzacs",
		"address": "256 Phillip Street",
		"coffeeServed": "Balzacs",
		"website": "",
		"latitude": 0,
		"longitude": 0
	},
	{
		"stateProv": "Ontario",
		"region": "Eastern Ontario",
		"city": "Kingston",
		"name": "Balzacs",
		"address": "251 Princess Street",
		"coffeeServed": "Balzacs",
		"website": "",
		"latitude": 44.232578,
		"longitude": -76.487507
	}
]
